{
  "stations": {
    "TPP26": {
      "name": "TPP26",
      "label": "TPP26",
      "place_id": "ChIJaVrou4hw2EcROetQMMOP12M",
      "address": "22 Gwydir St, Cambridge CB1 2LL",
      "website": "http://www.thealexcambridge.com/",
      "phone": "01223 324441",
      "position": {
        "lat": 52.20386,
        "lon": 0.139356
      }
    },
    "TPP27": {
      "name": "TPP27",
      "label": "TPP27",
      "place_id": "ChIJF5v8q55w2EcRWbfRNUQNPmE",
      "address": "26 Russel Court, Cambridge, CB2 1HW",
      "website": "http://www.thealmacambridge.co.uk/",
      "phone": "01223 316722",
      "position": {
        "lat": 52.195982,
        "lon": 0.125493
      }
    },
    "TPP28": {
      "name": "TPP28",
      "label": "TPP28",
      "place_id": "hIJocwdyrxw2EcRnogp-KBkY_o",
      "address": "Silver Street, Cambridge, CB3 9EL",
      "website": "http://www.anchorcambridge.com",
      "phone": "01223 353554",
      "position": {
        "lat": 52.201999,
        "lon": 0.115758
      }
    },
    "TPP29": {
      "name": "TPP29",
      "label": "TPP29",
      "place_id": "ChIJI5agpzlw2EcR55ZT5vZy_ok",
      "address": "5 High St, Fen Ditton, Cambridge, CB5 8ST",
      "website": "http://www.theancientshepherds.co.uk/",
      "phone": "01223 293280",
      "position": {
        "lat": 52.220375,
        "lon": 0.172721
      }
    },
    "TPP30": {
      "name": "TPP30",
      "label": "TPP30",
      "place_id": "ChIJX3Dbo7hw2EcR4iVxgX74BlU",
      "address": "43 Castle St, Cambridge, CB3 0AH",
      "website": "http://www.thearchitectcambridge.co.uk/",
      "phone": "01223 563779",
      "position": {
        "lat": 52.212078,
        "lon": 0.113155
      }
    },
    "TPP31": {
      "name": "TPP31",
      "label": "TPP31",
      "place_id": "ChIJVeAxW75w2EcRkM91IuEN_oU",
      "address": "19 Bridge St, Cambridge CB2 1UF",
      "website": "http://www.baronofbeef-cambridge.co.uk/",
      "phone": "01223 505022",
      "position": {
        "lat": 52.208893,
        "lon": 0.118118
      }
    },
    "TPP32": {
      "name": "TPP32",
      "label": "TPP32",
      "address": "3 Benet Street, Cambridge, CB2 3QN",
      "website": "http://www.bathhouse-cambridge.co.uk/",
      "phone": "01223 350969",
      "position": {
        "lat": 52.204073,
        "lon": 0.118459
      }
    },
    "TPP33": {
      "name": "TPP33",
      "label": "TPP33",
      "address": "57 Broadway, Grantchester, Cambridge CB3 9NQ",
      "website": "http://www.blueballgrantchester.co.uk/",
      "phone": "01223 846004",
      "position": {
        "lat": 52.183303,
        "lon": 0.09408
      }
    },
    "TPP34": {
      "name": "TPP34",
      "label": "TPP34",
      "address": "2 Norfolk St, Cambridge CB1 2LF",
      "website": "https://www.facebook.com/bluemooncambridge/",
      "phone": "01223 500238",
      "position": {
        "lat": 52.204781,
        "lon": 0.136648
      }
    },
    "TPP35": {
      "name": "TPP35",
      "label": "TPP35",
      "address": "14 Chesterton Rd, Cambridge CB4 3AX",
      "website": "http://www.boathouse-cambridge.co.uk/",
      "phone": "01223 460905",
      "position": {
        "lat": 52.213719,
        "lon": 0.123523
      }
    },
    "TPP36": {
      "name": "TPP36",
      "label": "TPP36",
      "address": "1 King St, Cambridge CB1 1LH",
      "website": "http://www.thecambridgebrewhouse.com/",
      "phone": "01223 855185",
      "position": {
        "lat": 52.207412,
        "lon": 0.122225
      }
    },
    "TPP37": {
      "name": "TPP37",
      "label": "TPP37",
      "address": "25 TPP37fields, Cambridge CB1 3NW",
      "website": "http://www.thebrookpub.co.uk/",
      "phone": "01223 566929",
      "position": {
        "lat": 52.196072,
        "lon": 0.155429
      }
    },
    "TPPN38": {
      "name": "TPPN38",
      "label": "TPPN38",
      "address": "9-11 Newmarket Rd, Cambridge CB5 8EG",
      "website": "http://www.burleigharmscambridge.co.uk/",
      "phone": "01223 301547",
      "position": {
        "lat": 52.208184,
        "lon": 0.132854
      }
    },
    "TPP39": {
      "name": "TPP39",
      "label": "TPP39",
      "address": "85-87 Gwydir St, Cambridge CB1 2LG",
      "website": "http://www.the-cambridgeblue.co.uk/",
      "phone": "01223 471680",
      "position": {
        "lat": 52.202328,
        "lon": 0.139173
      }
    },
    "TPP40": {
      "name": "TPP40",
      "label": "TPP40",
      "address": "Carlton Way, Cambridge CB4 2DF",
      "website": "http://thecarltonarmscambridge.co.uk/",
      "phone": "01223 367422",
      "position": {
        "lat": 52.222048,
        "lon": 0.114374
      }
    },
    "TPP41": {
      "name": "TPP41",
      "label": "TPP41",
      "address": "184-186 Victoria Rd, Cambridge, CB4 3DZ",
      "website": "http://www.carpentersarmscambridge.co.uk/",
      "phone": "01223 367050",
      "position": {
        "lat": 52.21576,
        "lon": 0.114374
      }
    },
    "TPP42": {
      "name": "TPP42",
      "label": "TPP42",
      "place_id": "ChIJoccoXsdw2EcROG63agLdFi4",
      "address": "38 Castle St, City Centre, Cambridge CB3 0AJ",
      "website": "http://thecastleinncambridge.com/",
      "phone": "01223 353194",
      "position": {
        "lat": 52.211945,
        "lon": 0.113552
      }
    },
    "TPP43": {
      "name": "TPP43",
      "label": "TPP43",
      "address": "68 King St, Cambridge CB1 1LN",
      "position": {
        "lat": 52.207328,
        "lon": 0.124451
      }
    },
    "TPP44": {
      "name": "TPP44",
      "label": "TPP44",
      "address": "35-36 Clarendon St, Cambridge CB1 1JX",
      "phone": "01223 778272",
      "position": {
        "lat": 52.20465,
        "lon": 0.127679
      }
    },
    "TPP45": {
      "name": "TPP45",
      "label": "TPP45",
      "address": "231 Newmarket Rd, Cambridge CB5 8JE",
      "phone": "01223 352047",
      "position": {
        "lat": 52.209485,
        "lon": 0.143369
      }
    },
    "TPP46": {
      "name": "TPP46",
      "label": "TPP46",
      "address": "18 Melbourne Pl, Cambridge CB1 1EQ",
      "website": "http://lukthai.com/",
      "phone": "01223 778871",
      "position": {
        "lat": 52.204954,
        "lon": 0.129559
      }
    },
    "TPP47": {
      "name": "TPP47",
      "label": "TPP47",
      "address": "1B Devonshire Rd, Cambridge, CB1 2BH",
      "website": "https://www.individualpubs.co.uk/devonshire/",
      "phone": "01223 316610",
      "position": {
        "lat": 52.198924,
        "lon": 0.139079
      }
    },
    "TPP48": {
      "name": "TPP48",
      "label": "TPP48",
      "address": "184 Sturton St, Cambridge, CB1 2QF",
      "website": "http://www.thedobblers.com/",
      "phone": "01223 576092",
      "position": {
        "lat": 52.205422,
        "lon": 0.140016
      }
    },
    "TPP49": {
      "name": "TPP49",
      "label": "TPP49",
      "address": "176 East Rd, Cambridge CB1 1BG",
      "website": "http://www.dukeofcambridge-cambridge.co.uk/",
      "phone": "01223 304121",
      "position": {
        "lat": 52.204871,
        "lon": 0.133633
      }
    },
    "TPP50": {
      "name": "TPP50",
      "label": "TPP50",
      "address": "8 Benet Street, Cambridge, CB2 3QN",
      "website": "http://www.eagle-cambridge.co.uk/",
      "phone": "01223 505020",
      "position": {
        "lat": 52.203974,
        "lon": 0.118044
      }
    },
    "TPP51": {
      "name": "TPP51",
      "label": "TPP51",
      "address": "133 16S12 Rd, Cambridge CB1 3AA",
      "website": "http://www.earlofbeaconsfield.co.uk/",
      "phone": "01223 410703",
      "position": {
        "lat": 52.198414,
        "lon": 0.142186
      }
    },
    "TPP52": {
      "name": "TPP52",
      "label": "TPP52",
      "address": "129 Hills Rd, Cambridge CB2 1PG",
      "website": "http://www.theearlofderby.com/",
      "phone": "01223 352785",
      "position": {
        "lat": 52.192092,
        "lon": 0.134079
      }
    },
    "TPP53": {
      "name": "TPP53",
      "label": "TPP53",
      "address": "16A Orchard St, Cambridge CB1 1JT",
      "website": "http://www.theelmtreecambridge.co.uk/",
      "phone": "01223 502632",
      "position": {
        "lat": 52.205124,
        "lon": 0.129503
      }
    },
    "TPP54": {
      "name": "TPP54",
      "label": "TPP54",
      "address": "72 Thoday St, Cambridge, CB1 3AX",
      "phone": "01223 247236",
      "position": {
        "lat": 52.199158,
        "lon": 0.147212
      }
    },
    "TPP55": {
      "name": "TPP55",
      "label": "TPP55",
      "address": "106 Hills Rd, Cambridge, CB2 1LQ",
      "phone": "01223 354623",
      "position": {
        "lat": 52.194474,
        "lon": 0.131747
      }
    },
    "TPP56": {
      "name": "TPP56",
      "label": "TPP56",
      "address": "Cambridge CB4 1HA",
      "website": "http://www.fortstgeorge-cambridge.co.uk/",
      "phone": "01223 305523",
      "position": {
        "lat": 52.212511,
        "lon": 0.127802
      }
    },
    "TPP57": {
      "name": "TPP57",
      "label": "TPP57",
      "address": "7 Prospect Row, Cambridge, CB1 1DU",
      "website": "http://www.freepresspub.com/",
      "phone": "01223 368337",
      "position": {
        "lat": 52.20474,
        "lon": 0.130385
      }
    },
    "TPP58": {
      "name": "TPP58",
      "label": "TPP58",
      "address": "1 Ainsworth St, Cambridge, CB1 2PF",
      "website": "http://www.the-geldart.co.uk/",
      "phone": "01223 314264",
      "position": {
        "lat": 52.203696,
        "lon": 0.142231
      }
    },
    "TPP59": {
      "name": "TPP59",
      "label": "TPP59",
      "address": "355 Milton Rd, Cambridge, CB4 1SP",
      "website": "http://www.golden-hind-pub-cambridge.co.uk/",
      "phone": "01223 420816",
      "position": {
        "lat": 52.227922,
        "lon": 0.145524
      }
    },
    "TPP60": {
      "name": "TPP60",
      "label": "TPP60",
      "address": "69-76 Regent St, Cambridge CB2 1AA",
      "website": "http://www.grainandhopstore-cambridge.co.uk/",
      "phone": "01223 323405",
      "position": {
        "lat": 52.200689,
        "lon": 0.126622
      }
    },
    "16S01": {
      "name": "16S01",
      "label": "16S01",
      "address": "14 Newnham Rd, Cambridge, CB3 9EX",
      "website": "http://www.granta-cambridge.co.uk/",
      "phone": "01223 505016",
      "position": {
        "lat": 52.1997,
        "lon": 0.11373
      }
    },
    "16S(2/C)": {
      "name": "16S (2/C)",
      "label": "16S (2/C)",
      "address": "19 Histon Rd, Cambridge CB4 3JB",
      "website": "http://www.thegrapescambridge.co.uk/",
      "phone": "01223 511974",
      "position": {
        "lat": 52.214963,
        "lon": 0.110773
      }
    },
    "16S02": {
      "name": "16S02",
      "label": "16S02",
      "address": "5 Water St, Cambridge CB4 1NZ",
      "website": "http://www.greendragon-cambridge.co.uk/",
      "phone": "01223 505035",
      "position": {
        "lat": 52.217958,
        "lon": 0.145433
      }
    },
    "16S(4/C)": {
      "name": "16S (4/C)",
      "label": "16S (4/C)",
      "address": "59 High St, Grantchester, Cambridge CB3 9NF",
      "website": "http://www.thegreenmangrantchester.co.uk/",
      "phone": "01223 844669",
      "position": {
        "lat": 52.18004,
        "lon": 0.095174
      }
    },
    "16S03": {
      "name": "16S03",
      "label": "16S03",
      "address": "55 High St, Cambridge, Trumpington CB2 9HZ",
      "website": "http://www.thegreenmantrumpington.com/",
      "phone": "01223 844903",
      "position": {
        "lat": 52.176564,
        "lon": 0.113054
      }
    },
    "16S(6/C)": {
      "name": "16S (6/C)",
      "label": "16S (6/C)",
      "address": "54 High St, Cambridge CB4 1NG",
      "website": "https://www.facebook.com/cambridgehaymakers",
      "phone": "01223 311077",
      "position": {
        "lat": 52.217339,
        "lon": 0.139439
      }
    },
    "16S04": {
      "name": "16S04",
      "label": "16S04",
      "address": "11-12 Fair St, Cambridge, CB1 1HA",
      "website": "http://www.thehopbine.co.uk/",
      "phone": "01223 367204",
      "position": {
        "lat": 52.207365,
        "lon": 0.12938
      }
    },
    "16S(8/C)": {
      "name": "16S (8/C)",
      "label": "16S (8/C)",
      "address": "77 High St, Trumpington CB2 9HZ",
      "website": "http://www.hudsonalehouse.co.uk/",
      "phone": "01223 570042",
      "position": {
        "lat": 52.175125,
        "lon": 0.112693
      }
    },
    "16S05": {
      "name": "16S05",
      "label": "16S05",
      "address": "50 High St, Fen Ditton, Cambridge CB5 8ST",
      "phone": "01223 293861",
      "position": {
        "lat": 52.2214166,
        "lon": 0.169868
      }
    },
    "16S06": {
      "name": "16S06",
      "label": "16S06",
      "address": "33 Kingston St, Cambridge CB1 2NU",
      "website": "http://www.kingston-arms.co.uk/",
      "phone": "01223 319414",
      "position": {
        "lat": 52.200351,
        "lon": 0.139764
      }
    },
    "16S07": {
      "name": "16S07",
      "label": "16S07",
      "address": "86 King St, Cambridge CB1 1LN",
      "phone": "01223 328900",
      "position": {
        "lat": 52.20724,
        "lon": 0.125199
      }
    },
    "16S08": {
      "name": "16S08",
      "label": "16S08",
      "address": "40 Mawson Rd, Cambridge, CB1 2EA",
      "phone": "01223 460261",
      "position": {
        "lat": 52.199411,
        "lon": 0.135038
      }
    },
    "16S09": {
      "name": "16S09",
      "label": "16S09",
      "address": "22 Church Ln, Trumpington, Cambridge CB2 9LA",
      "website": "http://www.lordbyroninn.co.uk/",
      "phone": "01223 845102",
      "position": {
        "lat": 52.174461,
        "lon": 0.110456
      }
    },
    "16S10": {
      "name": "16S10",
      "label": "16S10",
      "address": "20A Portugal Pl, Cambridge CB5 8AF",
      "website": "http://www.maypolefreehouse.co.uk/",
      "phone": "01223 352999",
      "position": {
        "lat": 52.209671,
        "lon": 0.119232
      }
    },
    "16S11": {
      "name": "16S11",
      "label": "16S11",
      "address": "Perne Rd, Cambridge, CB1 3RX",
      "phone": "01223 240808",
      "position": {
        "lat": 52.18913,
        "lon": 0.153427
      }
    },
    "16S12": {
      "name": "16S12",
      "label": "16S12",
      "address": "14 16S12 Ln, Cambridge CB2 1RX",
      "website": "http://www.themillpubcambridge.com/",
      "phone": "01223 311829",
      "position": {
        "lat": 52.201552,
        "lon": 0.116128
      }
    },
    "16S13": {
      "name": "16S13",
      "label": "16S13",
      "address": "205 Milton Rd, Cambridge, CB4 1XG",
      "website": "http://www.hungryhorse.co.uk/locations/milton-arms",
      "phone": "01223 505012",
      "position": {
        "lat": 52.22268,
        "lon": 0.136693
      }
    },
    "16S14": {
      "name": "16S14",
      "label": "16S14",
      "address": "17 Bridge St, Cambridge CB2 1UF",
      "website":
      "http://www.nicholsonspubs.co.uk/restaurants/eastofengland/themitrecambridge",
      "phone": "01223 358403",
      "position": {
        "lat": 52.208852,
        "lon": 0.118185
      }
    },
    "16S15": {
      "name": "16S15",
      "label": "16S15",
      "address": "1 Ferry Path, Cambridge CB4 1HB",
      "website": "http://www.theoldspring.co.uk/",
      "phone": "01223 357228",
      "position": {
        "lat": 52.214393,
        "lon": 0.127719
      }
    },
    "16S16": {
      "name": "16S16",
      "label": "16S16",
      "address": "43 Panton St, Cambridge CB2 1HL",
      "phone": "01223 464351",
      "position": {
        "lat": 52.196491,
        "lon": 0.124987
      }
    },
    "16S17": {
      "name": "16S17",
      "label": "16S17",
      "address": "2 Sturton Street, Cambridge CB1 2QA",
      "phone": "01223 306306",
      "position": {
        "lat": 52.201332,
        "lon": 0.140671
      }
    },
    "16S18": {
      "name": "16S18",
      "label": "16S18",
      "address": "30 Magdalene St, Cambridge CB3 0AF",
      "website": "http://www.taylor-walker.co.uk/pub/pickerel-cambridge",
      "phone": "01223 355068",
      "position": {
        "lat": 52.209955,
        "lon": 0.116209
      }
    },
    "16S19": {
      "name": "16S19",
      "label": "16S19",
      "address": "10 Peas Hill, Cambridge CB2 3PN",
      "website": "http://pintshop.co.uk/",
      "phone": "01223 352293",
      "position": {
        "lat": 52.204194,
        "lon": 0.119142
      }
    },
    "16S20": {
      "name": "16S20",
      "label": "16S20",
      "address": "Green End, Cambridge, Cambridgshire CB5 8SX",
      "website": "http://www.theploughfenditton.co.uk/",
      "phone": "01223 293264",
      "position": {
        "lat": 52.224075,
        "lon": 0.16823
      }
    },
    "16S21": {
      "name": "16S21",
      "label": "16S21",
      "address": "129 Chesterton Rd, Cambridge CB4 3BA",
      "website": "http://www.theportlandarms.co.uk/",
      "phone": "01223 357268",
      "position": {
        "lat": 52.214426,
        "lon": 0.124525
      }
    },
    "16S22": {
      "name": "16S22",
      "label": "16S22",
      "address": "91 Regent St, Cambridge, CB2 1AW",
      "website": "http://www.princeregent-cambridge.co.uk/",
      "phone": "01223 505030",
      "position": {
        "lat": 52.199934,
        "lon": 0.126909
      }
    },
    "16S23": {
      "name": "16S23",
      "label": "16S23",
      "place_id": "ChIJIwqxlbhw2EcRQYT52kWYXhQ",
      "address": "3 Pound Hill, Cambridge CB3 0AE",
      "website": "http://www.thepuntercambridge.com/",
      "phone": "01223 363322",
      "position": {
        "lat": 52.210552,
        "lon": 0.113281
      }
    },
    "16S24": {
      "name": "16S24",
      "label": "16S24",
      "address": "Wulfstan Way, Cambridge, CB1 8QN",
      "website": "https://www.individualpubs.co.uk/queenedith/",
      "phone": "01223 244536",
      "position": {
        "lat": 52.180264,
        "lon": 0.152927
      }
    },
    "16S25": {
      "name": "16S25",
      "label": "16S25",
      "address": "11 Barton Rd, Newnham, Cambridge CB3 9JZ",
      "phone": "01223 300943",
      "position": {
        "lat": 52.196487,
        "lon": 0.108657
      }
    },
    "16S26": {
      "name": "16S26",
      "label": "16S26",
      "address": "33 High St, Grantchester, Cambridge CB3 9NF",
      "website": "http://www.redliongrantchester.co.uk/",
      "phone": "01223 840121",
      "position": {
        "lat": 52.180343,
        "lon": 0.095603
      }
    },
    "16S27": {
      "name": "16S27",
      "label": "16S27",
      "address": "38-39 St Andrew's St, Cambridge, Cambridgeshire CB2 3AR",
      "website":
      "https://www.jdwetherspoon.com/pubs/all-pubs/england/cambridgeshire/the-regal-cambridge",
      "phone": "01223 366459",
      "position": {
        "lat": 52.202947,
        "lon": 0.123806
      }
    },
    "16S28": {
      "name": "16S28",
      "label": "16S28",
      "address": "200 Cherry Hinton Rd, Cambridge CB1 7AW",
      "website": "http://www.rock-cambridge.co.uk/",
      "phone": "01223 505005",
      "position": {
        "lat": 52.187503,
        "lon": 0.146716
      }
    },
    "16S29": {
      "name": "16S29",
      "label": "16S29",
      "address": "292 16S12 Rd, Cambridge CB1 3NL",
      "website": "http://royalstandardcambridge.com/",
      "phone": "01223 569065",
      "position": {
        "lat": 52.197,
        "lon": 0.149764
      }
    },
    "16S30": {
      "name": "16S30",
      "label": "16S30",
      "address": "2 Broadway, Grantchester CB3 9NQ",
      "website": "http://www.therupertbrooke.com/",
      "phone": "01223 841875",
      "position": {
        "lat": 52.181132,
        "lon": 0.093629
      }
    },
    "16S31": {
      "name": "16S31",
      "label": "16S31",
      "address": "76 Tenison Rd, Cambridge, CB1 2DW",
      "website": "http://www.salisburyarmscambridge.co.uk/",
      "phone": "01223 576363",
      "position": {
        "lat": 52.198305,
        "lon": 0.135435
      }
    },
    "16SN32": {
      "name": "16SN32",
      "label": "16SN32",
      "address": "Northfields Ave, Cambridge CB4 2LG",
      "phone": "01223 314445",
      "position": {
        "lat": 52.231224,
        "lon": 0.128837
      }
    },
    "16SN33": {
      "name": "16SN33",
      "label": "16SN33",
      "address": "84 Castle St, Cambridge CB3 0AJ",
      "website": "http://www.sirisaacnewton-cambridge.co.uk/",
      "phone": "01223 305555",
      "position": {
        "lat": 52.213338,
        "lon": 0.112072
      }
    },
    "16S34": {
      "name": "16S34",
      "label": "16S34",
      "address": "11 Covent Garden, Cambridge CB1 2HS",
      "website": "http://sixbellspub.co.uk/",
      "phone": "01223 355559",
      "position": {
        "lat": 52.200395,
        "lon": 0.134442
      }
    },
    "16SN35": {
      "name": "16SN35",
      "label": "16SN35",
      "address": "129 King St, Cambridge, CB1 1LD",
      "phone": "01223 311794",
      "position": {
        "lat": 52.207616,
        "lon": 0.126733
      }
    },
    "16S36": {
      "name": "16S36",
      "label": "16S36",
      "address": "3-5 Dover St, Cambridge CB1 1DY",
      "website": "https://sites.google.com/site/tramdepotcambs/",
      "phone": "01223 324553",
      "position": {
        "lat": 52.204638,
        "lon": 0.132827
      }
    },
    "16SN37": {
      "name": "16SN37",
      "label": "16SN37",
      "address": "32 Chesterton Rd, Cambridge CB4 3AX",
      "website": "http://www.thewaterman-cambridge.co.uk/",
      "phone": "01223 323813",
      "position": {
        "lat": 52.214166,
        "lon": 0.125526
      }
    },
    "16S38": {
      "name": "16S38",
      "label": "16S38",
      "address": "109 16S12 Rd, City Centre, Cambridge CB1 2AZ",
      "website": "http://www.whiteswancambridge.co.uk/",
      "position": {
        "lat": 52.199318,
        "lon": 0.139278
      }
    },
    "16S39": {
      "name": "16S39",
      "label": "16S39",
      "address": "Newmarket Rd, Cambridge CB5 8JE",
      "website": "http://www.thewrestlerscambridge.co.uk/",
      "phone": "01223 566554",
      "position": {
        "lat": 52.210964,
        "lon": 0.146358
      }
    }
  },
  "lines": [
    {
      "name": "Town",
      "label": "Town",
      "color": "#FFD600",
      "shiftCoords": [0, 0],
      "nodes": [
        {
          "coords": [14, -4],
          "name": "16S12",
          "labelPos": "S"
        },
        {
          "coords": [23, -4],
          "marker": "interchange",
          "name": "16S27",
          "labelPos": "NW",
          "shiftCoords": [0, 0],
          "hide": true
        },
        {
          "coords": [30, -4]
        },
        {
          "coords": [31, -3],
          "dir": "E"
        },
        {
          "coords": [31, 2],
          "marker": "interchange",
          "name": "TPP44",
          "labelPos": "E",
          "hide": true
        },
        {
          "coords": [31, 6],
          "name": "16SN35",
          "labelPos": "E"
        },
        {
          "coords": [31, 9]
        },
        {
          "coords": [30, 10],
          "dir": "N"
        },
        {
          "coords": [28, 10],
          "name": "16S07",
          "labelPos": "N"
        },
        {
          "coords": [27, 10],
          "name": "TPP43",
          "labelPos": "S"
        },
        {
          "coords": [23, 10],
          "marker": "interchange",
          "name": "TPP36",
          "labelPos": "SW",
          "shiftCoords": [0, 0.5],
          "labelShiftCoords": [0, 0],
          "canonical": true
        },
        {
          "coords": [14, 10],
          "name": "16S14",
          "labelPos": "N"
        },
        {
          "coords": [12, 10],
          "name": "TPP31",
          "labelPos": "S",
          "canonical": true
        },
        {
          "coords": [10, 10]
        },
        {
          "coords": [9, 9],
          "dir": "W"
        },
        {
          "coords": [9, 2],
          "marker": "interchange",
          "name": "TPP50",
          "labelPos": "NW",
          "hide": true
        },
        {
          "coords": [9, -2],
          "name": "TPP28",
          "labelPos": "E"
        },
        {
          "coords": [9, -3]
        },
        {
          "coords": [10, -4],
          "dir": "S"
        },
        {
          "coords": [14, -4]
        }
      ]
    },
    {
      "name": "Castle",
      "label": "Castle",
      "color": "#AB4800",
      "shiftCoords": [0, 1],
      "nodes": [
        {
          "coords": [10, 33],
          "name": "TPP40",
          "labelPos": "N"
        },
        {
          "coords": [1, 33]
        },
        {
          "coords": [-1, 32]
        },
        {
          "coords": [-3, 30],
          "name": "TPP41",
          "labelPos": "NW"
        },
        {
          "coords": [-5, 28],
          "name": "16S(2/C)",
          "labelPos": "NW"
        },
        {
          "coords": [-7, 26]
        },
        {
          "coords": [-8, 24]
        },
        {
          "coords": [-8, 22]
        },
        {
          "coords": [-8, 21]
        },
        {
          "coords": [-7, 19],
          "name": "16SN33",
          "labelPos": "SW"
        },
        {
          "coords": [-5, 17],
          "name": "TPP30",
          "labelPos": "SW"
        },
        {
          "coords": [-3, 15],
          "name": "TPP42",
          "labelPos": "NE"
        },
        {
          "coords": [-1, 13],
          "name": "16S23",
          "labelPos": "SW"
        },
        {
          "coords": [1, 11]
        },
        {
          "coords": [3, 10],
          "marker": "interchange",
          "name": "16S18",
          "labelPos": "SW"
        },
        {
          "coords": [12, 10],
          "marker": "interchange",
          "name": "TPP31",
          "labelPos": "NW"
        },
        {
          "coords": [14, 10],
          "name": "16S14",
          "labelPos": "N",
          "canonical": true
        },
        {
          "coords": [23, 10],
          "marker": "interchange",
          "name": "TPP36",
          "labelPos": "W",
          "hide": true
        }
      ]
    },
    {
      "name": "Riverbank",
      "label": "Riverbank",
      "color": "#2B8DBF",
      "shiftCoords": [0, 0],
      "nodes": [
        {
          "coords": [3, -4],
          "marker": "interchange",
          "name": "16S01",
          "labelPos": "SW",
          "shiftCoords": [0, -1],
          "canonical": true
        },
        {
          "coords": [3, 10],
          "marker": "interchange",
          "name": "16S18",
          "labelPos": "SW",
          "hide": true
        },
        {
          "coords": [3, 18]
        },
        {
          "coords": [4, 20]
        },
        {
          "coords": [6, 22]
        },
        {
          "coords": [8, 23]
        },
        {
          "coords": [10, 23],
          "name": "TPP35",
          "labelPos": "S"
        },
        {
          "coords": [13, 23],
          "name": "16S21",
          "labelPos": "N"
        },
        {
          "coords": [17, 23],
          "name": "16SN37",
          "labelPos": "S"
        },
        {
          "coords": [23, 23],
          "marker": "interchange",
          "name": "16S15",
          "labelPos": "S",
          "hide": true
        },
        {
          "coords": [38, 23],
          "name": "16S(6/C)",
          "labelPos": "N"
        },
        {
          "coords": [42, 23],
          "name": "16S02",
          "labelPos": "S"
        }
      ]
    },
    {
      "name": "Backstreet",
      "label": "Backstreet",
      "color": "#FF1100",
      "shiftCoords": [0, 0],
      "nodes": [
        {
          "coords": [9, 2],
          "marker": "interchange",
          "name": "TPP50",
          "labelPos": "NE",
          "canonical": true
        },
        {
          "coords": [16, 2],
          "name": "TPP32",
          "labelPos": "S"
        },
        {
          "coords": [19, 2],
          "name": "16S19",
          "labelPos": "N"
        },
        {
          "coords": [31, 2],
          "marker": "interchange",
          "name": "TPP44",
          "labelPos": "SW",
          "canonical": true
        },
        {
          "coords": [39, 2],
          "marker": "interchange",
          "name": "TPP53",
          "labelPos": "NW",
          "canonical": true
        },
        {
          "coords": [43, 2],
          "name": "TPP46",
          "labelPos": "S"
        },
        {
          "coords": [47, 2],
          "name": "TPP57",
          "labelPos": "N"
        },
        {
          "coords": [50, 2],
          "name": "16S36",
          "labelPos": "S"
        },
        {
          "coords": [54, 2],
          "name": "TPP49",
          "labelPos": "N"
        },
        {
          "coords": [57, 2],
          "name": "TPP34",
          "labelPos": "S"
        },
        {
          "coords": [62, 2],
          "name": "TPP48",
          "labelPos": "N"
        },
        {
          "coords": [66, 2],
          "name": "TPP26",
          "labelPos": "S"
        },
        {
          "coords": [69, 2],
          "name": "TPP58",
          "labelPos": "N"
        },
        {
          "coords": [70, 2]
        },
        {
          "coords": [72, 1]
        },
        {
          "coords": [74, -1],
          "name": "TPP39",
          "labelPos": "NE"
        },
        {
          "coords": [76, -3],
          "name": "16S17",
          "labelPos": "NE"
        },
        {
          "coords": [78, -5],
          "name": "16S06",
          "labelPos": "NE"
        }
      ]
    },
    {
      "name": "Grantchester",
      "label": "Grantchester",
      "color": "#0C6826",
      "shiftCoords": [1, -1],
      "nodes": [
        {
          "coords": [-27, -22],
          "name": "16S(4/C)",
          "labelPos": "W"
        },
        {
          "coords": [-27, -20],
          "name": "16S26",
          "labelPos": "W"
        },
        {
          "coords": [-27, -18],
          "name": "16S30",
          "labelPos": "W"
        },
        {
          "coords": [-27, -16],
          "name": "TPP33",
          "labelPos": "W"
        },
        {
          "coords": [-27, -11]
        },
        {
          "coords": [-26, -9]
        },
        {
          "coords": [-24, -7]
        },
        {
          "coords": [-22, -5]
        },
        {
          "coords": [-20, -4]
        },
        {
          "coords": [-3, -4],
          "name": "16S25",
          "labelPos": "N"
        },
        {
          "coords": [3, -4],
          "marker": "interchange",
          "name": "16S01",
          "labelPos": "S",
          "hide": true
        },
        {
          "coords": [14, -4],
          "name": "16S12",
          "labelPos": "S",
          "shiftCoords": [0, -1]
        },
        {
          "coords": [29, -4],
          "marker": "interchange",
          "name": "16S27",
          "labelPos": "NW",
          "shiftCoords": [0, -1],
          "hide": true
        },
        {
          "coords": [30.5, -4]
        },
        {
          "coords": [32.5, -3]
        },
        {
          "coords": [42.5, 7],
          "name": "16S04",
          "labelPos": "NW"
        },
        {
          "coords": [44.5, 9],
          "name": "TPPN38",
          "labelPos": "NW"
        },
        {
          "coords": [46.5, 11]
        },
        {
          "coords": [48.5, 12]
        },
        {
          "coords": [52, 12],
          "name": "TPP45",
          "labelPos": "S"
        },
        {
          "coords": [54, 12],
          "name": "16S39",
          "labelPos": "N"
        },
        {
          "coords": [60, 12]
        },
        {
          "coords": [62, 12]
        },
        {
          "coords": [64, 13]
        },
        {
          "coords": [86, 36],
          "name": "TPP29",
          "labelPos": "SE"
        },
        {
          "coords": [88, 38],
          "name": "16S05",
          "labelPos": "SE"
        },
        {
          "coords": [90, 40],
          "name": "16S20",
          "labelPos": "SE"
        }
      ]
    },
    {
      "name": "16S12Road",
      "label": "16S12 Road",
      "color": "#85898A",
      "shiftCoords": [0, 0],
      "nodes": [
        {
          "coords": [39, 2]
        },
        {
          "coords": [39, -2]
        },
        {
          "coords": [40, -4]
        },
        {
          "coords": [42, -6],
          "name": "16S34",
          "labelPos": "NE"
        },
        {
          "coords": [44, -8],
          "name": "16S08",
          "labelPos": "NE"
        },
        {
          "coords": [46, -10],
          "name": "16S31",
          "labelPos": "NE"
        },
        {
          "coords": [48, -12],
          "name": "16S38",
          "labelPos": "NE"
        },
        {
          "coords": [50, -14],
          "name": "TPP47",
          "labelPos": "SW"
        },
        {
          "coords": [52, -16],
          "name": "TPP51",
          "labelPos": "NE"
        },
        {
          "coords": [54, -18],
          "name": "TPP54",
          "labelPos": "NE"
        },
        {
          "coords": [56, -20],
          "name": "16S29",
          "labelPos": "SW"
        },
        {
          "coords": [58, -22],
          "name": "TPP37",
          "labelPos": "SW"
        }
      ]
    },
    {
      "name": "HillsRoad",
      "label": "Hills Road",
      "color": "#89014C",
      "shiftCoords": [0, -2],
      "nodes": [
        {
          "coords": [14, -4],
          "name": "16S12",
          "labelPos": "S",
          "shiftCoords": [0, -2],
          "canonical": true
        },
        {
          "coords": [23, -4],
          "marker": "interchange",
          "name": "16S27",
          "labelPos": "NE",
          "shiftCoords": [0, -2],
          "hide": true
        },
        {
          "coords": [27, -4]
        },
        {
          "coords": [29, -5]
        },
        {
          "coords": [31, -7],
          "name": "TPP60",
          "labelPos": "NE"
        },
        {
          "coords": [33, -9],
          "name": "16S22",
          "labelPos": "NE"
        },
        {
          "coords": [37, -13],
          "name": "TPP55",
          "labelPos": "NE"
        },
        {
          "coords": [39, -15],
          "name": "TPP52",
          "labelPos": "SW"
        },
        {
          "coords": [41, -17],
          "name": "16S28",
          "labelPos": "SW"
        },
        {
          "coords": [47, -23],
          "name": "16S11",
          "labelPos": "SW"
        },
        {
          "coords": [49, -25]
        },
        {
          "coords": [51, -26]
        },
        {
          "coords": [53, -26],
          "name": "16S24",
          "labelPos": "S"
        }
      ]
    },
    {
      "name": "Northern",
      "label": "Northern",
      "color": "#000000",
      "shiftCoords": [0, 0],
      "nodes": [
        {
          "coords": [-6, -36],
          "name": "16S09",
          "labelPos": "SE"
        },
        {
          "coords": [-3, -33],
          "name": "16S(8/C)",
          "labelPos": "SE"
        },
        {
          "coords": [-1, -31],
          "name": "16S03",
          "labelPos": "SE"
        },
        {
          "coords": [19, -11],
          "name": "TPP27",
          "labelPos": "SE"
        },
        {
          "coords": [22, -8],
          "name": "16S16",
          "labelPos": "SE"
        },
        {
          "coords": [23, -6]
        },
        {
          "coords": [23, -4],
          "marker": "interchange",
          "name": "16S27",
          "labelPos": "NW",
          "shiftCoords": [0, -1],
          "labelShiftCoords": [0, 0],
          "canonical": true
        },
        {
          "coords": [23, 10],
          "marker": "interchange",
          "name": "TPP36",
          "labelPos": "W",
          "hide": true
        },
        {
          "coords": [23, 13],
          "name": "16S10",
          "labelPos": "W"
        },
        {
          "coords": [23, 15],
          "name": "TPP56",
          "labelPos": "E"
        },
        {
          "coords": [23, 23],
          "marker": "interchange",
          "name": "16S15",
          "labelPos": "SE",
          "canonical": true
        },
        {
          "coords": [23, 25]
        },
        {
          "coords": [24, 27]
        },
        {
          "coords": [26, 29]
        },
        {
          "coords": [28, 30]
        },
        {
          "coords": [30, 30],
          "name": "16S13",
          "labelPos": "N"
        },
        {
          "coords": [36, 30],
          "name": "TPP59",
          "labelPos": "S"
        },
        {
          "coords": [38, 30]
        },
        {
          "coords": [39, 31],
          "dir": "E"
        },
        {
          "coords": [39, 33]
        },
        {
          "coords": [39, 42],
          "name": "16SN32",
          "labelPos": "E"
        }
      ]
    }
  ],
  "river": {
    "name": "River",
    "label": "River",
    "shiftCoords": [0, 0],
    "nodes": [
      {
        "coords": [-14, -28]
      },
      {
        "coords": [5, -8]
      },
      {
        "coords": [6, -6]
      },
      {
        "coords": [6, 12]
      },
      {
        "coords": [7, 14]
      },
      {
        "coords": [9, 16]
      },
      {
        "coords": [11, 17]
      },
      {
        "coords": [50, 17]
      },
      {
        "coords": [52, 18]
      },
      {
        "coords": [76, 42]
      }
    ]
  }
}


"TPP41": {
"name": "TPP41",
"label": "TPP41"
},
"TPP42": {
"name": "TPP42",
"label": "TPP42"
},
"TPP43": {
"name": "TPP43",
"label": "TPP43"
},
"TPP44": {
"name": "TPP44",
"label": "TPP44"
},
"TPP45": {
"name": "TPP45",
"label": "TPP45"
},
"TPP46": {
"name": "TPP46",
"label": "TPP46"
},
"TPP47": {
"name": "TPP47",
"label": "TPP47"
},
"TPP48": {
"name": "TPP48",
"label": "TPP48"
},
"TPP49": {
"name": "TPP49",
"label": "TPP49"
},
"TPP50": {
"name": "TPP50",
"label": "TPP50"
}
