{
  "stations": {
    "TPP26": {
      "name": "TPP26",
      "label": "TPP26",
      "place_id": "ChIJaVrou4hw2EcROetQMMOP12M",
      "address": "22 Gwydir St, Cambridge CB1 2LL",
      "website": "http://www.thealexcambridge.com/",
      "phone": "01223 324441",
      "position": {
        "lat": 52.20386,
        "lon": 0.139356
      }
    },
    "TPP27": {
      "name": "TPP27",
      "label": "TPP27",
      "place_id": "ChIJF5v8q55w2EcRWbfRNUQNPmE",
      "address": "26 Russel Court, Cambridge, CB2 1HW",
      "website": "http://www.thealmacambridge.co.uk/",
      "phone": "01223 316722",
      "position": {
        "lat": 52.195982,
        "lon": 0.125493
      }
    },
    "TPP28": {
      "name": "TPP28",
      "label": "TPP28",
      "place_id": "hIJocwdyrxw2EcRnogp-KBkY_o",
      "address": "Silver Street, Cambridge, CB3 9EL",
      "website": "http://www.anchorcambridge.com",
      "phone": "01223 353554",
      "position": {
        "lat": 52.201999,
        "lon": 0.115758
      }
    },
    "TPP29": {
      "name": "TPP29",
      "label": "TPP29",
      "place_id": "ChIJI5agpzlw2EcR55ZT5vZy_ok",
      "address": "5 High St, Fen Ditton, Cambridge, CB5 8ST",
      "website": "http://www.theancientshepherds.co.uk/",
      "phone": "01223 293280",
      "position": {
        "lat": 52.220375,
        "lon": 0.172721
      }
    },
    "TPP30": {
      "name": "TPP30",
      "label": "TPP30",
      "place_id": "ChIJX3Dbo7hw2EcR4iVxgX74BlU",
      "address": "43 Castle St, Cambridge, CB3 0AH",
      "website": "http://www.thearchitectcambridge.co.uk/",
      "phone": "01223 563779",
      "position": {
        "lat": 52.212078,
        "lon": 0.113155
      }
    },
    "TPP31": {
      "name": "TPP31",
      "label": "TPP31",
      "place_id": "ChIJVeAxW75w2EcRkM91IuEN_oU",
      "address": "19 Bridge St, Cambridge CB2 1UF",
      "website": "http://www.baronofbeef-cambridge.co.uk/",
      "phone": "01223 505022",
      "position": {
        "lat": 52.208893,
        "lon": 0.118118
      }
    },
    "TPP32": {
      "name": "TPP32",
      "label": "TPP32",
      "address": "3 Benet Street, Cambridge, CB2 3QN",
      "website": "http://www.bathhouse-cambridge.co.uk/",
      "phone": "01223 350969",
      "position": {
        "lat": 52.204073,
        "lon": 0.118459
      }
    },
    "TPP33": {
      "name": "TPP33",
      "label": "TPP33",
      "address": "57 Broadway, Grantchester, Cambridge CB3 9NQ",
      "website": "http://www.blueballgrantchester.co.uk/",
      "phone": "01223 846004",
      "position": {
        "lat": 52.183303,
        "lon": 0.09408
      }
    },
    "TPP34": {
      "name": "TPP34",
      "label": "TPP34",
      "address": "2 Norfolk St, Cambridge CB1 2LF",
      "website": "https://www.facebook.com/bluemooncambridge/",
      "phone": "01223 500238",
      "position": {
        "lat": 52.204781,
        "lon": 0.136648
      }
    },
    "TPP35": {
      "name": "TPP35",
      "label": "TPP35",
      "address": "14 Chesterton Rd, Cambridge CB4 3AX",
      "website": "http://www.boathouse-cambridge.co.uk/",
      "phone": "01223 460905",
      "position": {
        "lat": 52.213719,
        "lon": 0.123523
      }
    },
    "TPP36": {
      "name": "TPP36",
      "label": "TPP36",
      "address": "1 King St, Cambridge CB1 1LH",
      "website": "http://www.thecambridgebrewhouse.com/",
      "phone": "01223 855185",
      "position": {
        "lat": 52.207412,
        "lon": 0.122225
      }
    },
    "TPP37": {
      "name": "TPP37",
      "label": "TPP37",
      "address": "25 TPP37fields, Cambridge CB1 3NW",
      "website": "http://www.thebrookpub.co.uk/",
      "phone": "01223 566929",
      "position": {
        "lat": 52.196072,
        "lon": 0.155429
      }
    },
    "TPPN38": {
      "name": "TPPN38",
      "label": "TPPN38",
      "address": "9-11 Newmarket Rd, Cambridge CB5 8EG",
      "website": "http://www.burleigharmscambridge.co.uk/",
      "phone": "01223 301547",
      "position": {
        "lat": 52.208184,
        "lon": 0.132854
      }
    },
    "TPP39": {
      "name": "TPP39",
      "label": "TPP39",
      "address": "85-87 Gwydir St, Cambridge CB1 2LG",
      "website": "http://www.the-cambridgeblue.co.uk/",
      "phone": "01223 471680",
      "position": {
        "lat": 52.202328,
        "lon": 0.139173
      }
    },
    "TPP40": {
      "name": "TPP40",
      "label": "TPP40",
      "address": "Carlton Way, Cambridge CB4 2DF",
      "website": "http://thecarltonarmscambridge.co.uk/",
      "phone": "01223 367422",
      "position": {
        "lat": 52.222048,
        "lon": 0.114374
      }
    },
    "TPP41": {
      "name": "TPP41",
      "label": "TPP41",
      "address": "184-186 Victoria Rd, Cambridge, CB4 3DZ",
      "website": "http://www.carpentersarmscambridge.co.uk/",
      "phone": "01223 367050",
      "position": {
        "lat": 52.21576,
        "lon": 0.114374
      }
    },
    "TPP42": {
      "name": "TPP42",
      "label": "TPP42",
      "place_id": "ChIJoccoXsdw2EcROG63agLdFi4",
      "address": "38 Castle St, City Centre, Cambridge CB3 0AJ",
      "website": "http://thecastleinncambridge.com/",
      "phone": "01223 353194",
      "position": {
        "lat": 52.211945,
        "lon": 0.113552
      }
    },
    "TPP43": {
      "name": "TPP43",
      "label": "TPP43",
      "address": "68 King St, Cambridge CB1 1LN",
      "position": {
        "lat": 52.207328,
        "lon": 0.124451
      }
    },
    "TPP44": {
      "name": "TPP44",
      "label": "TPP44",
      "address": "35-36 Clarendon St, Cambridge CB1 1JX",
      "phone": "01223 778272",
      "position": {
        "lat": 52.20465,
        "lon": 0.127679
      }
    },
    "TPP45": {
      "name": "TPP45",
      "label": "TPP45",
      "address": "231 Newmarket Rd, Cambridge CB5 8JE",
      "phone": "01223 352047",
      "position": {
        "lat": 52.209485,
        "lon": 0.143369
      }
    },
    "TPP46": {
      "name": "TPP46",
      "label": "TPP46",
      "address": "18 Melbourne Pl, Cambridge CB1 1EQ",
      "website": "http://lukthai.com/",
      "phone": "01223 778871",
      "position": {
        "lat": 52.204954,
        "lon": 0.129559
      }
    },
    "TPP47": {
      "name": "TPP47",
      "label": "TPP47",
      "address": "1B Devonshire Rd, Cambridge, CB1 2BH",
      "website": "https://www.individualpubs.co.uk/devonshire/",
      "phone": "01223 316610",
      "position": {
        "lat": 52.198924,
        "lon": 0.139079
      }
    },
    "TPP48": {
      "name": "TPP48",
      "label": "TPP48",
      "address": "184 Sturton St, Cambridge, CB1 2QF",
      "website": "http://www.thedobblers.com/",
      "phone": "01223 576092",
      "position": {
        "lat": 52.205422,
        "lon": 0.140016
      }
    },
    "TPP49": {
      "name": "TPP49",
      "label": "TPP49",
      "address": "176 East Rd, Cambridge CB1 1BG",
      "website": "http://www.dukeofcambridge-cambridge.co.uk/",
      "phone": "01223 304121",
      "position": {
        "lat": 52.204871,
        "lon": 0.133633
      }
    },
    "TPP50": {
      "name": "TPP50",
      "label": "TPP50",
      "address": "8 Benet Street, Cambridge, CB2 3QN",
      "website": "http://www.eagle-cambridge.co.uk/",
      "phone": "01223 505020",
      "position": {
        "lat": 52.203974,
        "lon": 0.118044
      }
    },
    "TPP51": {
      "name": "TPP51",
      "label": "TPP51",
      "address": "133 16S12 Rd, Cambridge CB1 3AA",
      "website": "http://www.earlofbeaconsfield.co.uk/",
      "phone": "01223 410703",
      "position": {
        "lat": 52.198414,
        "lon": 0.142186
      }
    },
    "TPP52": {
      "name": "TPP52",
      "label": "TPP52",
      "address": "129 Hills Rd, Cambridge CB2 1PG",
      "website": "http://www.theearlofderby.com/",
      "phone": "01223 352785",
      "position": {
        "lat": 52.192092,
        "lon": 0.134079
      }
    },
    "TPP53": {
      "name": "TPP53",
      "label": "TPP53",
      "address": "16A Orchard St, Cambridge CB1 1JT",
      "website": "http://www.theelmtreecambridge.co.uk/",
      "phone": "01223 502632",
      "position": {
        "lat": 52.205124,
        "lon": 0.129503
      }
    },
    "TPP54": {
      "name": "TPP54",
      "label": "TPP54",
      "address": "72 Thoday St, Cambridge, CB1 3AX",
      "phone": "01223 247236",
      "position": {
        "lat": 52.199158,
        "lon": 0.147212
      }
    },
    "TPP55": {
      "name": "TPP55",
      "label": "TPP55",
      "address": "106 Hills Rd, Cambridge, CB2 1LQ",
      "phone": "01223 354623",
      "position": {
        "lat": 52.194474,
        "lon": 0.131747
      }
    },
    "TPP56": {
      "name": "TPP56",
      "label": "TPP56",
      "address": "Cambridge CB4 1HA",
      "website": "http://www.fortstgeorge-cambridge.co.uk/",
      "phone": "01223 305523",
      "position": {
        "lat": 52.212511,
        "lon": 0.127802
      }
    },
    "TPP57": {
      "name": "TPP57",
      "label": "TPP57",
      "address": "7 Prospect Row, Cambridge, CB1 1DU",
      "website": "http://www.freepresspub.com/",
      "phone": "01223 368337",
      "position": {
        "lat": 52.20474,
        "lon": 0.130385
      }
    },
    "TPP58": {
      "name": "TPP58",
      "label": "TPP58",
      "address": "1 Ainsworth St, Cambridge, CB1 2PF",
      "website": "http://www.the-geldart.co.uk/",
      "phone": "01223 314264",
      "position": {
        "lat": 52.203696,
        "lon": 0.142231
      }
    },
    "TPP59": {
      "name": "TPP59",
      "label": "TPP59",
      "address": "355 Milton Rd, Cambridge, CB4 1SP",
      "website": "http://www.golden-hind-pub-cambridge.co.uk/",
      "phone": "01223 420816",
      "position": {
        "lat": 52.227922,
        "lon": 0.145524
      }
    },
    "TPP60": {
      "name": "TPP60",
      "label": "TPP60",
      "address": "69-76 Regent St, Cambridge CB2 1AA",
      "website": "http://www.grainandhopstore-cambridge.co.uk/",
      "phone": "01223 323405",
      "position": {
        "lat": 52.200689,
        "lon": 0.126622
      }
    },
    "16S01": {
      "name": "16S01",
      "label": "16S01",
      "address": "14 Newnham Rd, Cambridge, CB3 9EX",
      "website": "http://www.granta-cambridge.co.uk/",
      "phone": "01223 505016",
      "position": {
        "lat": 52.1997,
        "lon": 0.11373
      }
    },
    "16S(2/C)": {
      "name": "16S (2/C)",
      "label": "16S (2/C)",
      "address": "19 Histon Rd, Cambridge CB4 3JB",
      "website": "http://www.thegrapescambridge.co.uk/",
      "phone": "01223 511974",
      "position": {
        "lat": 52.214963,
        "lon": 0.110773
      }
    },
    "16S02": {
      "name": "16S02",
      "label": "16S02",
      "address": "5 Water St, Cambridge CB4 1NZ",
      "website": "http://www.greendragon-cambridge.co.uk/",
      "phone": "01223 505035",
      "position": {
        "lat": 52.217958,
        "lon": 0.145433
      }
    },
    "16S(4/C)": {
      "name": "16S (4/C)",
      "label": "16S (4/C)",
      "address": "59 High St, Grantchester, Cambridge CB3 9NF",
      "website": "http://www.thegreenmangrantchester.co.uk/",
      "phone": "01223 844669",
      "position": {
        "lat": 52.18004,
        "lon": 0.095174
      }
    },
    "16S03": {
      "name": "16S03",
      "label": "16S03",
      "address": "55 High St, Cambridge, Trumpington CB2 9HZ",
      "website": "http://www.thegreenmantrumpington.com/",
      "phone": "01223 844903",
      "position": {
        "lat": 52.176564,
        "lon": 0.113054
      }
    },
    "16S(6/C)": {
      "name": "16S (6/C)",
      "label": "16S (6/C)",
      "address": "54 High St, Cambridge CB4 1NG",
      "website": "https://www.facebook.com/cambridgehaymakers",
      "phone": "01223 311077",
      "position": {
        "lat": 52.217339,
        "lon": 0.139439
      }
    },
    "16S04": {
      "name": "16S04",
      "label": "16S04",
      "address": "11-12 Fair St, Cambridge, CB1 1HA",
      "website": "http://www.thehopbine.co.uk/",
      "phone": "01223 367204",
      "position": {
        "lat": 52.207365,
        "lon": 0.12938
      }
    },
    "16S(8/C)": {
      "name": "16S (8/C)",
      "label": "16S (8/C)",
      "address": "77 High St, Trumpington CB2 9HZ",
      "website": "http://www.hudsonalehouse.co.uk/",
      "phone": "01223 570042",
      "position": {
        "lat": 52.175125,
        "lon": 0.112693
      }
    },
    "16S05": {
      "name": "16S05",
      "label": "16S05",
      "address": "50 High St, Fen Ditton, Cambridge CB5 8ST",
      "phone": "01223 293861",
      "position": {
        "lat": 52.2214166,
        "lon": 0.169868
      }
    },
    "16S06": {
      "name": "16S06",
      "label": "16S06",
      "address": "33 Kingston St, Cambridge CB1 2NU",
      "website": "http://www.kingston-arms.co.uk/",
      "phone": "01223 319414",
      "position": {
        "lat": 52.200351,
        "lon": 0.139764
      }
    },
    "16S07": {
      "name": "16S07",
      "label": "16S07",
      "address": "86 King St, Cambridge CB1 1LN",
      "phone": "01223 328900",
      "position": {
        "lat": 52.20724,
        "lon": 0.125199
      }
    },
    "16S08": {
      "name": "16S08",
      "label": "16S08",
      "address": "40 Mawson Rd, Cambridge, CB1 2EA",
      "phone": "01223 460261",
      "position": {
        "lat": 52.199411,
        "lon": 0.135038
      }
    },
    "16S09": {
      "name": "16S09",
      "label": "16S09",
      "address": "22 Church Ln, Trumpington, Cambridge CB2 9LA",
      "website": "http://www.lordbyroninn.co.uk/",
      "phone": "01223 845102",
      "position": {
        "lat": 52.174461,
        "lon": 0.110456
      }
    },
    "16S10": {
      "name": "16S10",
      "label": "16S10",
      "address": "20A Portugal Pl, Cambridge CB5 8AF",
      "website": "http://www.maypolefreehouse.co.uk/",
      "phone": "01223 352999",
      "position": {
        "lat": 52.209671,
        "lon": 0.119232
      }
    },
    "16S11": {
      "name": "16S11",
      "label": "16S11",
      "address": "Perne Rd, Cambridge, CB1 3RX",
      "phone": "01223 240808",
      "position": {
        "lat": 52.18913,
        "lon": 0.153427
      }
    },
    "16S12": {
      "name": "16S12",
      "label": "16S12",
      "address": "14 16S12 Ln, Cambridge CB2 1RX",
      "website": "http://www.themillpubcambridge.com/",
      "phone": "01223 311829",
      "position": {
        "lat": 52.201552,
        "lon": 0.116128
      }
    },
    "16S13": {
      "name": "16S13",
      "label": "16S13",
      "address": "205 Milton Rd, Cambridge, CB4 1XG",
      "website": "http://www.hungryhorse.co.uk/locations/milton-arms",
      "phone": "01223 505012",
      "position": {
        "lat": 52.22268,
        "lon": 0.136693
      }
    },
    "16S14": {
      "name": "16S14",
      "label": "16S14",
      "address": "17 Bridge St, Cambridge CB2 1UF",
      "website":
      "http://www.nicholsonspubs.co.uk/restaurants/eastofengland/themitrecambridge",
      "phone": "01223 358403",
      "position": {
        "lat": 52.208852,
        "lon": 0.118185
      }
    },
    "16S15": {
      "name": "16S15",
      "label": "16S15",
      "address": "1 Ferry Path, Cambridge CB4 1HB",
      "website": "http://www.theoldspring.co.uk/",
      "phone": "01223 357228",
      "position": {
        "lat": 52.214393,
        "lon": 0.127719
      }
    },
    "16S16": {
      "name": "16S16",
      "label": "16S16",
      "address": "43 Panton St, Cambridge CB2 1HL",
      "phone": "01223 464351",
      "position": {
        "lat": 52.196491,
        "lon": 0.124987
      }
    },
    "16S17": {
      "name": "16S17",
      "label": "16S17",
      "address": "2 Sturton Street, Cambridge CB1 2QA",
      "phone": "01223 306306",
      "position": {
        "lat": 52.201332,
        "lon": 0.140671
      }
    },
    "16S18": {
      "name": "16S18",
      "label": "16S18",
      "address": "30 Magdalene St, Cambridge CB3 0AF",
      "website": "http://www.taylor-walker.co.uk/pub/pickerel-cambridge",
      "phone": "01223 355068",
      "position": {
        "lat": 52.209955,
        "lon": 0.116209
      }
    },
    "16S19": {
      "name": "16S19",
      "label": "16S19",
      "address": "10 Peas Hill, Cambridge CB2 3PN",
      "website": "http://pintshop.co.uk/",
      "phone": "01223 352293",
      "position": {
        "lat": 52.204194,
        "lon": 0.119142
      }
    },
    "16S20": {
      "name": "16S20",
      "label": "16S20",
      "address": "Green End, Cambridge, Cambridgshire CB5 8SX",
      "website": "http://www.theploughfenditton.co.uk/",
      "phone": "01223 293264",
      "position": {
        "lat": 52.224075,
        "lon": 0.16823
      }
    },
    "16S21": {
      "name": "16S21",
      "label": "16S21",
      "address": "129 Chesterton Rd, Cambridge CB4 3BA",
      "website": "http://www.theportlandarms.co.uk/",
      "phone": "01223 357268",
      "position": {
        "lat": 52.214426,
        "lon": 0.124525
      }
    },
    "16S22": {
      "name": "16S22",
      "label": "16S22",
      "address": "91 Regent St, Cambridge, CB2 1AW",
      "website": "http://www.princeregent-cambridge.co.uk/",
      "phone": "01223 505030",
      "position": {
        "lat": 52.199934,
        "lon": 0.126909
      }
    },
    "16S23": {
      "name": "16S23",
      "label": "16S23",
      "place_id": "ChIJIwqxlbhw2EcRQYT52kWYXhQ",
      "address": "3 Pound Hill, Cambridge CB3 0AE",
      "website": "http://www.thepuntercambridge.com/",
      "phone": "01223 363322",
      "position": {
        "lat": 52.210552,
        "lon": 0.113281
      }
    },
    "16S24": {
      "name": "16S24",
      "label": "16S24",
      "address": "Wulfstan Way, Cambridge, CB1 8QN",
      "website": "https://www.individualpubs.co.uk/queenedith/",
      "phone": "01223 244536",
      "position": {
        "lat": 52.180264,
        "lon": 0.152927
      }
    },
    "16S25": {
      "name": "16S25",
      "label": "16S25",
      "address": "11 Barton Rd, Newnham, Cambridge CB3 9JZ",
      "phone": "01223 300943",
      "position": {
        "lat": 52.196487,
        "lon": 0.108657
      }
    },
    "16S26": {
      "name": "16S26",
      "label": "16S26",
      "address": "33 High St, Grantchester, Cambridge CB3 9NF",
      "website": "http://www.redliongrantchester.co.uk/",
      "phone": "01223 840121",
      "position": {
        "lat": 52.180343,
        "lon": 0.095603
      }
    },
    "16S27": {
      "name": "16S27",
      "label": "16S27",
      "address": "38-39 St Andrew's St, Cambridge, Cambridgeshire CB2 3AR",
      "website":
      "https://www.jdwetherspoon.com/pubs/all-pubs/england/cambridgeshire/the-regal-cambridge",
      "phone": "01223 366459",
      "position": {
        "lat": 52.202947,
        "lon": 0.123806
      }
    },
    "16S28": {
      "name": "16S28",
      "label": "16S28",
      "address": "200 Cherry Hinton Rd, Cambridge CB1 7AW",
      "website": "http://www.rock-cambridge.co.uk/",
      "phone": "01223 505005",
      "position": {
        "lat": 52.187503,
        "lon": 0.146716
      }
    },
    "16S29": {
      "name": "16S29",
      "label": "16S29",
      "address": "292 16S12 Rd, Cambridge CB1 3NL",
      "website": "http://royalstandardcambridge.com/",
      "phone": "01223 569065",
      "position": {
        "lat": 52.197,
        "lon": 0.149764
      }
    },
    "16S30": {
      "name": "16S30",
      "label": "16S30",
      "address": "2 Broadway, Grantchester CB3 9NQ",
      "website": "http://www.therupertbrooke.com/",
      "phone": "01223 841875",
      "position": {
        "lat": 52.181132,
        "lon": 0.093629
      }
    },
    "16S31": {
      "name": "16S31",
      "label": "16S31",
      "address": "76 Tenison Rd, Cambridge, CB1 2DW",
      "website": "http://www.salisburyarmscambridge.co.uk/",
      "phone": "01223 576363",
      "position": {
        "lat": 52.198305,
        "lon": 0.135435
      }
    },
    "16SN32": {
      "name": "16SN32",
      "label": "16SN32",
      "address": "Northfields Ave, Cambridge CB4 2LG",
      "phone": "01223 314445",
      "position": {
        "lat": 52.231224,
        "lon": 0.128837
      }
    },
    "16SN33": {
      "name": "16SN33",
      "label": "16SN33",
      "address": "84 Castle St, Cambridge CB3 0AJ",
      "website": "http://www.sirisaacnewton-cambridge.co.uk/",
      "phone": "01223 305555",
      "position": {
        "lat": 52.213338,
        "lon": 0.112072
      }
    },
    "16S34": {
      "name": "16S34",
      "label": "16S34",
      "address": "11 Covent Garden, Cambridge CB1 2HS",
      "website": "http://sixbellspub.co.uk/",
      "phone": "01223 355559",
      "position": {
        "lat": 52.200395,
        "lon": 0.134442
      }
    },
    "16SN35": {
      "name": "16SN35",
      "label": "16SN35",
      "address": "129 King St, Cambridge, CB1 1LD",
      "phone": "01223 311794",
      "position": {
        "lat": 52.207616,
        "lon": 0.126733
      }
    },
    "16S36": {
      "name": "16S36",
      "label": "16S36",
      "address": "3-5 Dover St, Cambridge CB1 1DY",
      "website": "https://sites.google.com/site/tramdepotcambs/",
      "phone": "01223 324553",
      "position": {
        "lat": 52.204638,
        "lon": 0.132827
      }
    },
    "16SN37": {
      "name": "16SN37",
      "label": "16SN37",
      "address": "32 Chesterton Rd, Cambridge CB4 3AX",
      "website": "http://www.thewaterman-cambridge.co.uk/",
      "phone": "01223 323813",
      "position": {
        "lat": 52.214166,
        "lon": 0.125526
      }
    },
    "16S38": {
      "name": "16S38",
      "label": "16S38",
      "address": "109 16S12 Rd, City Centre, Cambridge CB1 2AZ",
      "website": "http://www.whiteswancambridge.co.uk/",
      "position": {
        "lat": 52.199318,
        "lon": 0.139278
      }
    },
    "16S39": {
      "name": "16S39",
      "label": "16S39",
      "address": "Newmarket Rd, Cambridge CB5 8JE",
      "website": "http://www.thewrestlerscambridge.co.uk/",
      "phone": "01223 566554",
      "position": {
        "lat": 52.210964,
        "lon": 0.146358
      }
    },

    "16S40": {
      "name": "16S40",
      "label": "16S40",
      "address": "14 16S12 Ln, Cambridge CB2 1RX",
      "website": "http://www.themillpubcambridge.com/",
      "phone": "01223 311829",
      "position": {
        "lat": 52.201552,
        "lon": 0.116128
      }
    },
    "16SN41": {
      "name": "16SN41",
      "label": "16SN41",
      "address": "205 Milton Rd, Cambridge, CB4 1XG",
      "website": "http://www.hungryhorse.co.uk/locations/milton-arms",
      "phone": "01223 505012",
      "position": {
        "lat": 52.22268,
        "lon": 0.136693
      }
    },
    "16SN42": {
      "name": "16SN42",
      "label": "16SN42",
      "address": "17 Bridge St, Cambridge CB2 1UF",
      "website":
      "http://www.nicholsonspubs.co.uk/restaurants/eastofengland/themitrecambridge",
      "phone": "01223 358403",
      "position": {
        "lat": 52.208852,
        "lon": 0.118185
      }
    },
    "16S43": {
      "name": "16S43",
      "label": "16S43",
      "address": "1 Ferry Path, Cambridge CB4 1HB",
      "website": "http://www.theoldspring.co.uk/",
      "phone": "01223 357228",
      "position": {
        "lat": 52.214393,
        "lon": 0.127719
      }
    },
    "16S44": {
      "name": "16S44",
      "label": "16S44",
      "address": "43 Panton St, Cambridge CB2 1HL",
      "phone": "01223 464351",
      "position": {
        "lat": 52.196491,
        "lon": 0.124987
      }
    },
    "16SN45N": {
      "name": "16SN45",
      "label": "16SN45",
      "address": "2 Sturton Street, Cambridge CB1 2QA",
      "phone": "01223 306306",
      "position": {
        "lat": 52.201332,
        "lon": 0.140671
      }
    },
    "16SN46N": {
      "name": "16SN46",
      "label": "16SN46",
      "address": "30 Magdalene St, Cambridge CB3 0AF",
      "website": "http://www.taylor-walker.co.uk/pub/pickerel-cambridge",
      "phone": "01223 355068",
      "position": {
        "lat": 52.209955,
        "lon": 0.116209
      }
    },
    "16SN47N": {
      "name": "16SN47",
      "label": "16SN47",
      "address": "10 Peas Hill, Cambridge CB2 3PN",
      "website": "http://pintshop.co.uk/",
      "phone": "01223 352293",
      "position": {
        "lat": 52.204194,
        "lon": 0.119142
      }
    },
    "CNN01N": {
      "name": "CNN01",
      "label": "CNN01",
      "address": "Green End, Cambridge, Cambridgshire CB5 8SX",
      "website": "http://www.theploughfenditton.co.uk/",
      "phone": "01223 293264",
      "position": {
        "lat": 52.224075,
        "lon": 0.16823
      }
    },
    "CNN02N": {
      "name": "CNN02",
      "label": "CNN02",
      "address": "129 Chesterton Rd, Cambridge CB4 3BA",
      "website": "http://www.theportlandarms.co.uk/",
      "phone": "01223 357268",
      "position": {
        "lat": 52.214426,
        "lon": 0.124525
      }
    },
    "CNN03N": {
      "name": "CNN03",
      "label": "CNN03",
      "address": "91 Regent St, Cambridge, CB2 1AW",
      "website": "http://www.princeregent-cambridge.co.uk/",
      "phone": "01223 505030",
      "position": {
        "lat": 52.199934,
        "lon": 0.126909
      }
    },
    "CNN04N": {
      "name": "CNN04",
      "label": "CNN04",
      "place_id": "ChIJIwqxlbhw2EcRQYT52kWYXhQ",
      "address": "3 Pound Hill, Cambridge CB3 0AE",
      "website": "http://www.thepuntercambridge.com/",
      "phone": "01223 363322",
      "position": {
        "lat": 52.210552,
        "lon": 0.113281
      }
    },
    "CNN05N": {
      "name": "CNN05",
      "label": "CNN05",
      "address": "Wulfstan Way, Cambridge, CB1 8QN",
      "website": "https://www.individualpubs.co.uk/queenedith/",
      "phone": "01223 244536",
      "position": {
        "lat": 52.180264,
        "lon": 0.152927
      }
    },
    "CNN06N": {
      "name": "CNN06",
      "label": "CNN06",
      "address": "11 Barton Rd, Newnham, Cambridge CB3 9JZ",
      "phone": "01223 300943",
      "position": {
        "lat": 52.196487,
        "lon": 0.108657
      }
    },
    "CNN07N": {
      "name": "CNN07",
      "label": "CNN07",
      "address": "33 High St, Grantchester, Cambridge CB3 9NF",
      "website": "http://www.redliongrantchester.co.uk/",
      "phone": "01223 840121",
      "position": {
        "lat": 52.180343,
        "lon": 0.095603
      }
    },
    "CNN08N": {
      "name": "CNN08",
      "label": "CNN08",
      "address": "38-39 St Andrew's St, Cambridge, Cambridgeshire CB2 3AR",
      "website":
      "https://www.jdwetherspoon.com/pubs/all-pubs/england/cambridgeshire/the-regal-cambridge",
      "phone": "01223 366459",
      "position": {
        "lat": 52.202947,
        "lon": 0.123806
      }
    },
    "CNN09N": {
      "name": "CNN09",
      "label": "CNN09",
      "address": "200 Cherry Hinton Rd, Cambridge CB1 7AW",
      "website": "http://www.rock-cambridge.co.uk/",
      "phone": "01223 505005",
      "position": {
        "lat": 52.187503,
        "lon": 0.146716
      }
    },
    "CNN10N": {
      "name": "CNN10",
      "label": "CNN10",
      "address": "292 16S12 Rd, Cambridge CB1 3NL",
      "website": "http://royalstandardcambridge.com/",
      "phone": "01223 569065",
      "position": {
        "lat": 52.197,
        "lon": 0.149764
      }
    },
    "CNN11N": {
      "name": "CNN11",
      "label": "CNN11",
      "address": "2 Broadway, Grantchester CB3 9NQ",
      "website": "http://www.therupertbrooke.com/",
      "phone": "01223 841875",
      "position": {
        "lat": 52.181132,
        "lon": 0.093629
      }
    },
    "CNN12N": {
      "name": "CNN12",
      "label": "CNN12",
      "address": "76 Tenison Rd, Cambridge, CB1 2DW",
      "website": "http://www.salisburyarmscambridge.co.uk/",
      "phone": "01223 576363",
      "position": {
        "lat": 52.198305,
        "lon": 0.135435
      }
    },
    "CNN13N": {
      "name": "CNN13",
      "label": "CNN13",
      "address": "Northfields Ave, Cambridge CB4 2LG",
      "phone": "01223 314445",
      "position": {
        "lat": 52.231224,
        "lon": 0.128837
      }
    },
    "CNN14N": {
      "name": "CNN14",
      "label": "CNN14",
      "address": "84 Castle St, Cambridge CB3 0AJ",
      "website": "http://www.sirisaacnewton-cambridge.co.uk/",
      "phone": "01223 305555",
      "position": {
        "lat": 52.213338,
        "lon": 0.112072
      }
    },
    "CNN15N": {
      "name": "CNN15",
      "label": "CNN15",
      "address": "11 Covent Garden, Cambridge CB1 2HS",
      "website": "http://sixbellspub.co.uk/",
      "phone": "01223 355559",
      "position": {
        "lat": 52.200395,
        "lon": 0.134442
      }
    },
    "16SN45S": {
      "name": "16SN45",
      "label": "16SN45",
      "address": "2 Sturton Street, Cambridge CB1 2QA",
      "phone": "01223 306306",
      "position": {
        "lat": 52.201332,
        "lon": 0.140671
      }
    },
    "16SN46S": {
      "name": "16SN46",
      "label": "16SN46",
      "address": "30 Magdalene St, Cambridge CB3 0AF",
      "website": "http://www.taylor-walker.co.uk/pub/pickerel-cambridge",
      "phone": "01223 355068",
      "position": {
        "lat": 52.209955,
        "lon": 0.116209
      }
    },
    "16SN47S": {
      "name": "16SN47",
      "label": "16SN47",
      "address": "10 Peas Hill, Cambridge CB2 3PN",
      "website": "http://pintshop.co.uk/",
      "phone": "01223 352293",
      "position": {
        "lat": 52.204194,
        "lon": 0.119142
      }
    },
    "CNN01S": {
      "name": "CNN01",
      "label": "CNN01",
      "address": "Green End, Cambridge, Cambridgshire CB5 8SX",
      "website": "http://www.theploughfenditton.co.uk/",
      "phone": "01223 293264",
      "position": {
        "lat": 52.224075,
        "lon": 0.16823
      }
    },
    "CNN02S": {
      "name": "CNN02",
      "label": "CNN02",
      "address": "129 Chesterton Rd, Cambridge CB4 3BA",
      "website": "http://www.theportlandarms.co.uk/",
      "phone": "01223 357268",
      "position": {
        "lat": 52.214426,
        "lon": 0.124525
      }
    },
    "CNN03S": {
      "name": "CNN03",
      "label": "CNN03",
      "address": "91 Regent St, Cambridge, CB2 1AW",
      "website": "http://www.princeregent-cambridge.co.uk/",
      "phone": "01223 505030",
      "position": {
        "lat": 52.199934,
        "lon": 0.126909
      }
    },
    "CNN04S": {
      "name": "CNN04",
      "label": "CNN04",
      "place_id": "ChIJIwqxlbhw2EcRQYT52kWYXhQ",
      "address": "3 Pound Hill, Cambridge CB3 0AE",
      "website": "http://www.thepuntercambridge.com/",
      "phone": "01223 363322",
      "position": {
        "lat": 52.210552,
        "lon": 0.113281
      }
    },
    "CNN05S": {
      "name": "CNN05",
      "label": "CNN05",
      "address": "Wulfstan Way, Cambridge, CB1 8QN",
      "website": "https://www.individualpubs.co.uk/queenedith/",
      "phone": "01223 244536",
      "position": {
        "lat": 52.180264,
        "lon": 0.152927
      }
    },
    "CNN06S": {
      "name": "CNN06",
      "label": "CNN06",
      "address": "11 Barton Rd, Newnham, Cambridge CB3 9JZ",
      "phone": "01223 300943",
      "position": {
        "lat": 52.196487,
        "lon": 0.108657
      }
    },
    "CNN07S": {
      "name": "CNN07",
      "label": "CNN07",
      "address": "33 High St, Grantchester, Cambridge CB3 9NF",
      "website": "http://www.redliongrantchester.co.uk/",
      "phone": "01223 840121",
      "position": {
        "lat": 52.180343,
        "lon": 0.095603
      }
    },
    "CNN08S": {
      "name": "CNN08",
      "label": "CNN08",
      "address": "38-39 St Andrew's St, Cambridge, Cambridgeshire CB2 3AR",
      "website":
      "https://www.jdwetherspoon.com/pubs/all-pubs/england/cambridgeshire/the-regal-cambridge",
      "phone": "01223 366459",
      "position": {
        "lat": 52.202947,
        "lon": 0.123806
      }
    },
    "CNN09S": {
      "name": "CNN09",
      "label": "CNN09",
      "address": "200 Cherry Hinton Rd, Cambridge CB1 7AW",
      "website": "http://www.rock-cambridge.co.uk/",
      "phone": "01223 505005",
      "position": {
        "lat": 52.187503,
        "lon": 0.146716
      }
    },
    "CNN10S": {
      "name": "CNN10",
      "label": "CNN10",
      "address": "292 16S12 Rd, Cambridge CB1 3NL",
      "website": "http://royalstandardcambridge.com/",
      "phone": "01223 569065",
      "position": {
        "lat": 52.197,
        "lon": 0.149764
      }
    },
    "CNN11S": {
      "name": "CNN11",
      "label": "CNN11",
      "address": "2 Broadway, Grantchester CB3 9NQ",
      "website": "http://www.therupertbrooke.com/",
      "phone": "01223 841875",
      "position": {
        "lat": 52.181132,
        "lon": 0.093629
      }
    },
    "CNN12S": {
      "name": "CNN12",
      "label": "CNN12",
      "address": "76 Tenison Rd, Cambridge, CB1 2DW",
      "website": "http://www.salisburyarmscambridge.co.uk/",
      "phone": "01223 576363",
      "position": {
        "lat": 52.198305,
        "lon": 0.135435
      }
    },
    "CNN13S": {
      "name": "CNN13",
      "label": "CNN13",
      "address": "Northfields Ave, Cambridge CB4 2LG",
      "phone": "01223 314445",
      "position": {
        "lat": 52.231224,
        "lon": 0.128837
      }
    },
    "CNN14S": {
      "name": "CNN14",
      "label": "CNN14",
      "address": "84 Castle St, Cambridge CB3 0AJ",
      "website": "http://www.sirisaacnewton-cambridge.co.uk/",
      "phone": "01223 305555",
      "position": {
        "lat": 52.213338,
        "lon": 0.112072
      }
    },
    "CNN15S": {
      "name": "CNN15",
      "label": "CNN15",
      "address": "11 Covent Garden, Cambridge CB1 2HS",
      "website": "http://sixbellspub.co.uk/",
      "phone": "01223 355559",
      "position": {
        "lat": 52.200395,
        "lon": 0.134442
      }
    },
    "CN16": {
      "name": "CN16",
      "label": "CN16",
      "address": "129 King St, Cambridge, CB1 1LD",
      "phone": "01223 311794",
      "position": {
        "lat": 52.207616,
        "lon": 0.126733
      }
    },
    "CN17": {
      "name": "CN17",
      "label": "CN17",
      "address": "3-5 Dover St, Cambridge CB1 1DY",
      "website": "https://sites.google.com/site/tramdepotcambs/",
      "phone": "01223 324553",
      "position": {
        "lat": 52.204638,
        "lon": 0.132827
      }
    },
    "CN18": {
      "name": "CN18",
      "label": "CN18",
      "address": "32 Chesterton Rd, Cambridge CB4 3AX",
      "website": "http://www.thewaterman-cambridge.co.uk/",
      "phone": "01223 323813",
      "position": {
        "lat": 52.214166,
        "lon": 0.125526
      }
    }
  },
  "lines": [
    {
      "name": "TPPTrack",
      "label": "TPPTrack",
      "color": "#6f6a6a",
      "shiftCoords": [0, 1],
      "nodes": [
        {
          "coords": [-20, 18],
          "marker": "interchange",
          "name": "TPP26",
          "labelPos": "N",
          "canonical": true
        },
        {
          "coords": [-17, 18],
          "marker": "interchange",
          "name": "TPP27",
          "labelPos": "S",
          "canonical": true
        },
        {
          "coords": [-14, 18],
          "marker": "interchange",
          "name": "TPP28",
          "labelPos": "N",
          "canonical": true
        },
        {
          "coords": [-11, 18],
          "marker": "interchange",
          "name": "TPP29",
          "labelPos": "S"
        },
        {
          "coords": [-8, 18],
          "marker": "interchange",
          "name": "TPP30",
          "labelPos": "N"
        },
        {
          "coords": [-5, 18],
          "marker": "interchange",
          "name": "TPP31",
          "labelPos": "S",
          "canonical": true
        },
        {
          "coords": [-2, 18],
          "marker": "interchange",
          "name": "TPP32",
          "labelPos": "N",
          "canonical": true
        },
        {
          "coords": [1, 18],
          "name": "TPP33",
          "marker": "interchange",
          "labelPos": "S"
        },
        {
          "coords": [4, 18],
          "name": "TPP34",
          "marker": "interchange",
          "labelPos": "N"
        },
        {
          "coords": [7, 18],
          "name": "TPP35",
          "marker": "interchange",
          "labelPos": "S"
        },
        {
          "coords": [10, 18],
          "name": "TPP36",
          "marker": "interchange",
          "labelPos": "N"
        },
        {
          "coords": [13, 18],
          "marker": "interchange",
          "name": "TPP37",
          "labelPos": "S"
        },
        {
          "coords": [16, 18],
          "name": "TPPN38",
          "marker": "interchange",
          "labelPos": "N"
        },
        {
          "coords": [19, 18],
          "marker": "interchange",
          "name": "TPP39",
          "labelPos": "S"
        },
        {
          "coords": [22, 18],
          "marker": "interchange",
          "name": "TPP40",
          "labelPos": "N"
        },
        {
          "coords": [25, 18],
          "marker": "interchange",
          "name": "TPP41",
          "labelPos": "S"
        },
        {
          "coords": [28, 18],
          "marker": "interchange",
          "name": "TPP42",
          "labelPos": "N"
        },
        {
          "coords": [31, 18],
          "marker": "interchange",
          "name": "TPP43",
          "labelPos": "S"
        },
        {
          "coords": [34, 18],
          "marker": "interchange",
          "name": "TPP44",
          "labelPos": "N"
        },
        {
          "coords": [37, 18],
          "marker": "interchange",
          "name": "TPP45",
          "labelPos": "S"
        },
        {
          "coords": [40, 18],
          "marker": "interchange",
          "name": "TPP46",
          "labelPos": "N"
        },
        {
          "coords": [43, 18],
          "marker": "interchange",
          "name": "TPP47",
          "labelPos": "S"
        },
        {
          "coords": [46, 18],
          "marker": "interchange",
          "name": "TPP48",
          "labelPos": "N"
        },
        {
          "coords": [49, 18],
          "marker": "interchange",
          "name": "TPP49",
          "labelPos": "S"
        },
        {
          "coords": [52, 18],
          "marker": "interchange",
          "name": "TPP50",
          "labelPos": "N"
        },
        {
          "coords": [55, 18],
          "marker": "interchange",
          "name": "TPP51",
          "labelPos": "S"
        },
        {
          "coords": [58, 18],
          "marker": "interchange",
          "name": "TPP52",
          "labelPos": "N"
        },
        {
          "coords": [61, 18],
          "marker": "interchange",
          "name": "TPP53",
          "labelPos": "S"
        },
        {
          "coords": [64, 18],
          "marker": "interchange",
          "name": "TPP54",
          "labelPos": "N"
        },
        {
          "coords": [67, 18],
          "marker": "interchange",
          "name": "TPP55",
          "labelPos": "S"
        },
        {
          "coords": [70, 18],
          "marker": "interchange",
          "name": "TPP56",
          "labelPos": "N"
        },
        {
          "coords": [73, 18],
          "marker": "interchange",
          "name": "TPP57",
          "labelPos": "S"
        },
        {
          "coords": [76, 18],
          "marker": "interchange",
          "name": "TPP58",
          "labelPos": "N"
        },
        {
          "coords": [79, 18],
          "marker": "interchange",
          "name": "TPP59",
          "labelPos": "S"
        },
        {
          "coords": [82, 18],
          "marker": "interchange",
          "name": "TPP60",
          "labelPos": "N"
        }
      ]
    },
    {
      "name": "16STrack",
      "label": "16STrack",
      "color": "#6f6a6a",
      "shiftCoords": [0, 1],
      "nodes": [
        {
          "coords": [85, 18],
          "marker": "interchange",
          "name": "16S01",
          "labelPos": "S"
        },
        {
          "coords": [88, 18],
          "marker": "interchange",
          "name": "16S(2/C)",
          "labelPos": "N"
        },
        {
          "coords": [91, 18],
          "marker": "interchange",
          "name": "16S02",
          "labelPos": "S"
        },
        {
          "coords": [94, 18],
          "marker": "interchange",
          "name": "16S(4/C)",
          "labelPos": "N"
        },
        {
          "coords": [97, 18],
          "marker": "interchange",
          "name": "16S03",
          "labelPos": "S"
        },
        {
          "coords": [100, 18],
          "marker": "interchange",
          "name": "16S(6/C)",
          "labelPos": "N"
        },
        {
          "coords": [103, 18],
          "marker": "interchange",
          "name": "16S04",
          "labelPos": "S"
        },
        {
          "coords": [106, 18],
          "marker": "interchange",
          "name": "16S(8/C)",
          "labelPos": "N"
        },
        {
          "coords": [109, 18],
          "marker": "interchange",
          "name": "16S05",
          "labelPos": "S"
        },
        {
          "coords": [112, 18],
          "marker": "interchange",
          "name": "16S06",
          "labelPos": "N"
        },
        {
          "coords": [115, 18],
          "marker": "interchange",
          "name": "16S07",
          "labelPos": "S"
        },
        {
          "coords": [118, 18],
          "marker": "interchange",
          "name": "16S08",
          "labelPos": "N"
        },
        {
          "coords": [121, 18],
          "marker": "interchange",
          "name": "16S09",
          "labelPos": "S"
        },
        {
          "coords": [124, 18]
        },
        {
          "coords": [126, 17]
        },
        {
          "coords": [128, 15]
        },
        {
          "coords": [128, 11],
          "marker": "interchange",
          "name": "16S10",
          "labelPos": "E"
        },
        {
          "coords": [128, 8],
          "marker": "interchange",
          "name": "16S11",
          "labelPos": "W"
        },
        {
          "coords": [128, 5],
          "marker": "interchange",
          "name": "16S12",
          "labelPos": "E"
        },
        {
          "coords": [128, 2],
          "marker": "interchange",
          "name": "16S13",
          "labelPos": "W"
        },
        {
          "coords": [128, -1],
          "marker": "interchange",
          "name": "16S14",
          "labelPos": "E"
        },
        {
          "coords": [128, -4],
          "marker": "interchange",
          "name": "16S15",
          "labelPos": "W"
        },
        {
          "coords": [128, -7],
          "marker": "interchange",
          "name": "16S16",
          "labelPos": "E"
        },
        {
          "coords": [128, -10],
          "marker": "interchange",
          "name": "16S17",
          "labelPos": "W"
        },
        {
          "coords": [128, -13],
          "marker": "interchange",
          "name": "16S18",
          "labelPos": "E"
        },
        {
          "coords": [128, -16],
          "marker": "interchange",
          "name": "16S19",
          "labelPos": "W"
        },
        {
          "coords": [128, -19],
          "marker": "interchange",
          "name": "16S20",
          "labelPos": "E"
        },
        {
          "coords": [128, -22],
          "marker": "interchange",
          "name": "16S21",
          "labelPos": "W"
        },
        {
          "coords": [128, -25],
          "marker": "interchange",
          "name": "16S22",
          "labelPos": "E"
        },
        {
          "coords": [128, -28],
          "marker": "interchange",
          "name": "16S23",
          "labelPos": "W"
        },
        {
          "coords": [128, -31],
          "marker": "interchange",
          "name": "16S24",
          "labelPos": "E"
        },
        {
          "coords": [128, -34],
          "marker": "interchange",
          "name": "16S25",
          "labelPos": "W"
        },
        {
          "coords": [128, -37],
          "marker": "interchange",
          "name": "16S26",
          "labelPos": "E"
        },
        {
          "coords": [128, -40],
          "marker": "interchange",
          "name": "16S27",
          "labelPos": "W"
        },
        {
          "coords": [128, -43]
        },
        {
          "coords": [127, -45]
        },
        {
          "coords": [125, -47]
        },
        {
          "coords": [122, -47],
          "marker": "interchange",
          "name": "16S28",
          "labelPos": "S"
        },
        {
          "coords": [119, -47],
          "marker": "interchange",
          "name": "16S29",
          "labelPos": "N"
        },
        {
          "coords": [116, -47],
          "marker": "interchange",
          "name": "16S30",
          "labelPos": "S"
        },
        {
          "coords": [113, -47],
          "marker": "interchange",
          "name": "16S31",
          "labelPos": "N"
        },
        {
          "coords": [110, -47],
          "marker": "interchange",
          "name": "16SN32",
          "labelPos": "S"
        },
        {
          "coords": [107, -47],
          "marker": "interchange",
          "name": "16SN33",
          "labelPos": "N"
        },
        {
          "coords": [104, -47],
          "marker": "interchange",
          "name": "16S34",
          "labelPos": "S"
        },
        {
          "coords": [101, -47],
          "marker": "interchange",
          "name": "16SN35",
          "labelPos": "N"
        },
        {
          "coords": [98, -47],
          "marker": "interchange",
          "name": "16S36",
          "labelPos": "S"
        },
        {
          "coords": [95, -47],
          "marker": "interchange",
          "name": "16SN37",
          "labelPos": "N"
        },
        {
          "coords": [92, -47],
          "marker": "interchange",
          "name": "16S38",
          "labelPos": "S"
        },
        {
          "coords": [89, -47],
          "marker": "interchange",
          "name": "16S39",
          "labelPos": "N"
        },
        {
          "coords": [86, -47],
          "marker": "interchange",
          "name": "16S40",
          "labelPos": "S"
        },
        {
          "coords": [83, -47],
          "marker": "interchange",
          "name": "16SN41",
          "labelPos": "N"
        },
        {
          "coords": [80, -47],
          "marker": "interchange",
          "name": "16SN42",
          "labelPos": "S"
        },
        {
          "coords": [77, -47],
          "marker": "interchange",
          "name": "16S43",
          "labelPos": "N"
        },
        {
          "coords": [74, -47],
          "marker": "interchange",
          "name": "16S44",
          "labelPos": "S"
        }
      ]
    },
    {
      "name": "CJNTrack",
      "label": "CJNTrack",
      "color": "#6f6a6a",
      "shiftCoords": [0, 1],
      "nodes": [
        {
          "coords": [13, -47],
          "marker": "interchange",
          "name": "CN16",
          "labelPos": "N"
        },
        {
          "coords": [10, -47],
          "marker": "interchange",
          "name": "CN17",
          "labelPos": "S"
        },
        {
          "coords": [7, -47],
          "marker": "interchange",
          "name": "CN18",
          "labelPos": "N"
        }
      ]
    },
    {
      "name": "CJNStationNorth",
      "label": "CJNStationNorth",
      "color": "#0C6826",
      "shiftCoords": [0, 1],
      "nodes": [
        {
          "coords": [77, -47]
        },
        {
          "coords": [73, -43]
        },
        {
          "coords": [70, -43],
          "marker": "interchange",
          "name": "16SN45N",
          "labelPos": "N"
        },
        {
          "coords": [67, -43],
          "marker": "interchange",
          "name": "16SN46N",
          "labelPos": "S"
        },
        {
          "coords": [64, -43],
          "marker": "interchange",
          "name": "16SN47N",
          "labelPos": "N"
        },
        {
          "coords": [61, -43],
          "marker": "interchange",
          "name": "CNN01N",
          "labelPos": "S"
        },
        {
          "coords": [58, -43],
          "marker": "interchange",
          "name": "CNN02N",
          "labelPos": "N"
        },
        {
          "coords": [55, -43],
          "marker": "interchange",
          "name": "CNN03N",
          "labelPos": "S"
        },
        {
          "coords": [52, -43],
          "marker": "interchange",
          "name": "CNN04N",
          "labelPos": "N"
        },
        {
          "coords": [49, -43],
          "marker": "interchange",
          "name": "CNN05N",
          "labelPos": "S"
        },
        {
          "coords": [46, -43],
          "marker": "interchange",
          "name": "CNN06N",
          "labelPos": "N"
        },
        {
          "coords": [43, -43],
          "marker": "interchange",
          "name": "CNN07N",
          "labelPos": "S"
        },
        {
          "coords": [40, -43],
          "marker": "interchange",
          "name": "CNN08N",
          "labelPos": "N"
        },
        {
          "coords": [37, -43],
          "marker": "interchange",
          "name": "CNN09N",
          "labelPos": "S"
        },
        {
          "coords": [34, -43],
          "marker": "interchange",
          "name": "CNN10N",
          "labelPos": "N"
        },
        {
          "coords": [31, -43],
          "marker": "interchange",
          "name": "CNN11N",
          "labelPos": "S"
        },
        {
          "coords": [28, -43],
          "marker": "interchange",
          "name": "CNN12N",
          "labelPos": "N"
        },
        {
          "coords": [25, -43],
          "marker": "interchange",
          "name": "CNN13N",
          "labelPos": "S"
        },
        {
          "coords": [22, -43],
          "marker": "interchange",
          "name": "CNN14N",
          "labelPos": "N"
        },
        {
          "coords": [19, -43],
          "marker": "interchange",
          "name": "CNN15N",
          "labelPos": "S"
        },
        {
          "coords": [17, -43]
        },
        {
          "coords": [15, -45]
        },        {
          "coords": [13, -47]
        }
      ]
    },
    {
      "name": "CJNStationSouth",
      "label": "CJNStationSouth",
      "color": "#2B8DBF",
      "shiftCoords": [0, 1],
      "nodes": [
        {
          "coords": [77, -47]
        },
        {
          "coords": [73, -51]
        },
        {
          "coords": [70, -51],
          "marker": "interchange",
          "name": "16SN45S",
          "labelPos": "N"
        },
        {
          "coords": [67, -51],
          "marker": "interchange",
          "name": "16SN46S",
          "labelPos": "S"
        },
        {
          "coords": [64, -51],
          "marker": "interchange",
          "name": "16SN47S",
          "labelPos": "N"
        },
        {
          "coords": [61, -51],
          "marker": "interchange",
          "name": "CNN01S",
          "labelPos": "S"
        },
        {
          "coords": [58, -51],
          "marker": "interchange",
          "name": "CNN02S",
          "labelPos": "N"
        },
        {
          "coords": [55, -51],
          "marker": "interchange",
          "name": "CNN03S",
          "labelPos": "S"
        },
        {
          "coords": [52, -51],
          "marker": "interchange",
          "name": "CNN04S",
          "labelPos": "N"
        },
        {
          "coords": [49, -51],
          "marker": "interchange",
          "name": "CNN05S",
          "labelPos": "S"
        },
        {
          "coords": [46, -51],
          "marker": "interchange",
          "name": "CNN06S",
          "labelPos": "N"
        },
        {
          "coords": [43, -51],
          "marker": "interchange",
          "name": "CNN07S",
          "labelPos": "S"
        },
        {
          "coords": [40, -51],
          "marker": "interchange",
          "name": "CNN08S",
          "labelPos": "N"
        },
        {
          "coords": [37, -51],
          "marker": "interchange",
          "name": "CNN09S",
          "labelPos": "S"
        },
        {
          "coords": [34, -51],
          "marker": "interchange",
          "name": "CNN10S",
          "labelPos": "N"
        },
        {
          "coords": [31, -51],
          "marker": "interchange",
          "name": "CNN11S",
          "labelPos": "S"
        },
        {
          "coords": [28, -51],
          "marker": "interchange",
          "name": "CNN12S",
          "labelPos": "N"
        },
        {
          "coords": [25, -51],
          "marker": "interchange",
          "name": "CNN13S",
          "labelPos": "S"
        },
        {
          "coords": [22, -51],
          "marker": "interchange",
          "name": "CNN14S",
          "labelPos": "N"
        },
        {
          "coords": [19, -51],
          "marker": "interchange",
          "name": "CNN15S",
          "labelPos": "S"
        },
        {
          "coords": [17, -51]
        },
        {
          "coords": [15, -49]
        },        {
          "coords": [13, -47]
        }
      ]
    },
    {
      "name": "16SierraStationWest",
      "label": "16SierraStationWest",
      "color": "#0C6826",
      "shiftCoords": [0, 1],
      "nodes": [
        {
          "coords": [67, 18]
        },
        {
          "coords": [70, 15]
        },
        {
          "coords": [72, 14]
        },
        {
          "coords": [117, 14]
        },
        {
          "coords": [120, 17]
        },
        {
          "coords": [121, 19]
        }
      ]
    },
    {
      "name": "16SierraStationEast",
      "label": "16SierraStationEast",
      "color": "#2B8DBF",
      "shiftCoords": [0, 1],
      "nodes": [
        {
          "coords": [67, 18]
        },
        {
          "coords": [70, 21]
        },
        {
          "coords": [72, 22]
        },
        {
          "coords": [117, 22]
        },
        {
          "coords": [119, 21]
        },
        {
          "coords": [121, 19]
        }
      ]
    }
  ]
}
